2025-07-17T12:23:59,015294095+02:00;$GAGSV,3,1,10,03,03,028,,07,43,142,,08,40,064,,13,39,104,,7*7E
2025-07-17T12:23:59,020010803+02:00;$GAGSV,3,2,10,23,11,243,,24,06,343,,26,81,313,,29,06,184,,7*7F
2025-07-17T12:23:59,022824712+02:00;$GAGSV,3,3,10,31,19,293,,33,30,289,,7*70
2025-07-17T12:23:59,024953753+02:00;$GPGSV,3,1,12,01,76,289,23,02,67,122,22,03,49,243,24,08,20,177,22,1*63
2025-07-17T12:23:59,026843911+02:00;$GPGSV,3,2,12,10,05,063,16,14,12,277,25,17,31,307,18,28,09,094,21,1*67
2025-07-17T12:23:59,028873975+02:00;$GPGSV,3,3,12,32,33,053,18,04,04,189,,19,08,320,,22,16,293,,1*67
2025-07-17T12:23:59,030885190+02:00;$GPGGA,102359.00,5224.103474,N,01044.997811,E,1,08,0.9,103.0,M,46.0,M,,*6B
2025-07-17T12:23:59,033400313+02:00;$GPVTG,109.4,T,109.3,M,0.0,N,0.0,K,A*24
2025-07-17T12:23:59,035669355+02:00;$GPRMC,102359.00,A,5224.103474,N,01044.997811,E,0.0,109.4,170725,0.1,E,A,V*42
2025-07-17T12:23:59,037726555+02:00;$GPGSA,A,3,01,02,03,08,10,14,17,32,,,,,1.2,0.9,0.8,1*26
2025-07-17T12:24:00,014484469+02:00;$GAGSV,3,1,10,03,03,028,,07,43,142,,08,40,064,,13,39,104,,7*7E
2025-07-17T12:24:00,016650246+02:00;$GAGSV,3,2,10,23,11,243,,24,06,343,,26,81,313,,29,06,184,,7*7F
2025-07-17T12:24:00,018325907+02:00;$GAGSV,3,3,10,31,19,293,,33,30,289,,7*70
2025-07-17T12:24:00,020082144+02:00;$GPGSV,3,1,12,01,76,289,22,02,67,122,22,03,49,243,25,08,20,177,22,1*63
2025-07-17T12:24:00,021609644+02:00;$GPGSV,3,2,12,10,05,063,16,14,12,277,27,17,31,307,18,28,09,094,20,1*64
2025-07-17T12:24:00,023133784+02:00;$GPGSV,3,3,12,32,33,053,18,04,04,189,,19,08,320,,22,16,293,,1*67
2025-07-17T12:24:00,024736644+02:00;$GPGGA,102400.00,5224.103474,N,01044.997812,E,1,08,0.9,103.0,M,46.0,M,,*63
2025-07-17T12:24:00,026242800+02:00;$GPVTG,109.4,T,109.3,M,0.0,N,0.0,K,A*24
2025-07-17T12:24:00,027736507+02:00;$GPRMC,102400.00,A,5224.103474,N,01044.997812,E,0.0,109.4,170725,0.1,E,A,V*4A
2025-07-17T12:24:00,029290919+02:00;$GPGSA,A,3,01,02,03,08,10,14,17,32,,,,,1.2,0.9,0.8,1*26
2025-07-17T12:24:01,013776161+02:00;$GAGSV,3,1,10,03,03,028,,07,43,142,,08,40,064,,13,39,104,,7*7E
2025-07-17T12:24:01,015599599+02:00;$GAGSV,3,2,10,23,11,243,,24,06,343,,26,81,313,,29,06,184,,7*7F
2025-07-17T12:24:01,018138627+02:00;$GAGSV,3,3,10,31,19,293,,33,30,289,,7*70
2025-07-17T12:24:01,020181619+02:00;$GPGSV,3,1,12,01,76,289,22,02,67,122,22,03,49,243,24,08,20,177,22,1*62
2025-07-17T12:24:01,021737919+02:00;$GPGSV,3,2,12,10,05,063,16,14,12,277,27,17,31,307,18,28,09,094,20,1*64
2025-07-17T12:24:01,023417580+02:00;$GPGSV,3,3,12,32,33,053,18,04,04,189,,19,08,320,,22,16,293,,1*67
2025-07-17T12:24:01,025841950+02:00;$GPGGA,102401.00,5224.103473,N,01044.997813,E,1,07,1.1,103.0,M,46.0,M,,*62
2025-07-17T12:24:01,027744429+02:00;$GPVTG,109.4,T,109.3,M,0.0,N,0.0,K,A*24
2025-07-17T12:24:01,029285785+02:00;$GPRMC,102401.00,A,5224.103473,N,01044.997813,E,0.0,109.4,170725,0.1,E,A,V*4D
2025-07-17T12:24:01,030798949+02:00;$GPGSA,A,3,01,02,03,08,10,14,32,,,,,,1.3,1.1,0.8,1*28
2025-07-17T12:24:02,014643037+02:00;$GAGSV,3,1,10,03,03,028,,07,43,142,,08,40,064,,13,39,104,,7*7E
2025-07-17T12:24:02,016739022+02:00;$GAGSV,3,2,10,23,11,243,,24,06,343,,26,81,313,,29,06,184,,7*7F
2025-07-17T12:24:02,018567932+02:00;$GAGSV,3,3,10,31,19,293,,33,30,289,,7*70
2025-07-17T12:24:02,020417450+02:00;$GPGSV,3,1,12,01,76,289,22,02,67,122,22,03,49,243,24,08,20,177,22,1*62
2025-07-17T12:24:02,022234264+02:00;$GPGSV,3,2,12,10,05,063,16,14,12,277,27,17,31,307,18,28,09,094,21,1*65
2025-07-17T12:24:02,023968070+02:00;$GPGSV,3,3,12,32,33,053,18,04,04,189,,19,08,320,,22,16,293,,1*67
2025-07-17T12:24:02,025614355+02:00;$GPGGA,102402.00,5224.103473,N,01044.997813,E,1,06,1.2,103.0,M,46.0,M,,*63
2025-07-17T12:24:02,027539330+02:00;$GPVTG,109.4,T,109.3,M,0.0,N,0.0,K,A*24
2025-07-17T12:24:02,029556561+02:00;$GPRMC,102402.00,A,5224.103473,N,01044.997813,E,0.0,109.4,170725,0.1,E,A,V*4E
2025-07-17T12:24:02,031246846+02:00;$GPGSA,A,3,01,02,03,08,14,32,,,,,,,1.5,1.2,0.8,1*2C
2025-07-17T12:24:03,015933953+02:00;$GAGSV,3,1,10,03,03,028,,07,43,142,,08,40,064,,13,39,104,,7*7E
2025-07-17T12:24:03,017716559+02:00;$GAGSV,3,2,10,23,11,243,,24,06,343,,26,81,313,,29,06,184,,7*7F
2025-07-17T12:24:03,019168282+02:00;$GAGSV,3,3,10,31,19,293,,33,30,289,,7*70
2025-07-17T12:24:03,021102057+02:00;$GPGSV,3,1,12,01,76,289,23,02,67,122,22,03,49,243,23,08,20,177,21,1*67
2025-07-17T12:24:03,022826615+02:00;$GPGSV,3,2,12,10,05,063,16,14,12,277,28,17,31,307,18,28,09,094,21,1*6A
2025-07-17T12:24:03,024446627+02:00;$GPGSV,3,3,12,32,33,053,18,04,04,189,,19,08,320,,22,16,293,,1*67
2025-07-17T12:24:03,025910735+02:00;$GPGGA,102403.00,5224.103474,N,01044.997811,E,1,06,1.2,103.0,M,46.0,M,,*67
2025-07-17T12:24:03,027212345+02:00;$GPVTG,109.4,T,109.3,M,0.0,N,0.0,K,A*24
2025-07-17T12:24:03,028519683+02:00;$GPRMC,102403.00,A,5224.103474,N,01044.997811,E,0.0,109.4,170725,0.1,E,A,V*4A
2025-07-17T12:24:03,029762445+02:00;$GPGSA,A,3,01,02,03,08,14,32,,,,,,,1.5,1.2,0.8,1*2C
2025-07-17T12:24:04,013791566+02:00;$GAGSV,3,1,10,03,03,028,,07,43,142,,08,40,064,,13,39,104,,7*7E
2025-07-17T12:24:04,015554619+02:00;$GAGSV,3,2,10,23,11,243,,24,06,343,,26,81,313,,29,06,184,,7*7F
2025-07-17T12:24:04,017141576+02:00;$GAGSV,3,3,10,31,19,293,,33,30,289,,7*70
2025-07-17T12:24:04,311724653+02:00;$GPGSV,3,1,12,01,76,289,23,02,67,122,22,03,49,243,22,08,20,177,21,1*66
2025-07-17T12:24:04,313443483+02:00;$GPGSV,3,2,12,10,05,063,16,14,12,277,29,17,31,307,16,28,09,094,21,1*65
2025-07-17T12:24:04,315004551+02:00;$GPGSV,3,3,12,32,33,053,18,04,04,189,,19,08,320,,22,16,293,,1*67
2025-07-17T12:24:04,316908534+02:00;$GPGGA,102404.00,5224.103474,N,01044.997811,E,1,06,1.5,103.0,M,46.0,M,,*67
2025-07-17T12:24:04,318835013+02:00;$GPVTG,109.4,T,109.3,M,0.0,N,0.0,K,A*24
2025-07-17T12:24:04,320539986+02:00;$GPRMC,102404.00,A,5224.103474,N,01044.997811,E,0.0,109.4,170725,0.1,E,A,V*4D
2025-07-17T12:24:04,322278272+02:00;$GPGSA,A,3,01,02,03,08,14,17,,,,,,,1.7,1.5,0.9,1*2F
2025-07-17T12:24:05,014483316+02:00;$GAGSV,3,1,10,03,03,028,,07,43,142,,08,40,064,,13,39,104,,7*7E
2025-07-17T12:24:05,016453443+02:00;$GAGSV,3,2,10,23,11,243,,24,06,343,,26,81,313,,29,06,184,,7*7F
2025-07-17T12:24:05,018348018+02:00;$GAGSV,3,3,10,31,19,293,,33,30,289,,7*70
2025-07-17T12:24:05,019995423+02:00;$GPGSV,3,1,12,01,76,289,24,02,67,122,22,03,49,243,24,08,20,177,21,1*67
2025-07-17T12:24:05,021575243+02:00;$GPGSV,3,2,12,10,05,063,16,14,12,277,28,17,31,307,16,28,09,094,22,1*67
2025-07-17T12:24:05,023083543+02:00;$GPGSV,3,3,12,32,33,053,18,04,04,189,,19,08,320,,22,16,293,,1*67
2025-07-17T12:24:05,024870501+02:00;$GPGGA,102405.00,5224.103474,N,01044.997813,E,1,06,1.5,103.0,M,46.0,M,,*64
2025-07-17T12:24:05,026416018+02:00;$GPVTG,109.4,T,109.3,M,0.0,N,0.0,K,A*24
2025-07-17T12:24:05,027974238+02:00;$GPRMC,102405.00,A,5224.103474,N,01044.997813,E,0.0,109.4,170725,0.1,E,A,V*4E
2025-07-17T12:24:05,029562250+02:00;$GPGSA,A,3,01,02,03,08,14,17,,,,,,,1.7,1.5,0.9,1*2F
2025-07-17T12:24:06,014691129+02:00;$GAGSV,3,1,10,03,03,028,,07,43,142,,08,40,064,,13,39,104,,7*7E
2025-07-17T12:24:06,017604528+02:00;$GAGSV,3,2,10,23,11,243,,24,06,343,,26,81,313,,29,06,184,,7*7F
2025-07-17T12:24:06,019339390+02:00;$GAGSV,3,3,10,31,19,293,,33,30,289,,7*70
2025-07-17T12:24:06,022081331+02:00;$GPGSV,3,1,12,01,76,289,24,02,67,122,22,03,49,243,22,08,20,177,21,1*61
2025-07-17T12:24:06,024571431+02:00;$GPGSV,3,2,12,10,05,063,17,14,12,277,27,17,31,307,16,28,09,094,21,1*6A
2025-07-17T12:24:06,027042523+02:00;$GPGSV,3,3,12,32,33,053,18,04,04,189,,19,08,320,,22,16,293,,1*67
2025-07-17T12:24:06,029011146+02:00;$GPGGA,102406.00,5224.103474,N,01044.997813,E,1,07,1.0,103.0,M,46.0,M,,*63
2025-07-17T12:24:06,030906425+02:00;$GPVTG,109.4,T,109.3,M,0.0,N,0.0,K,A*24
2025-07-17T12:24:06,032806024+02:00;$GPRMC,102406.00,A,5224.103474,N,01044.997813,E,0.0,109.4,170725,0.1,E,A,V*4D
2025-07-17T12:24:06,034521302+02:00;$GPGSA,A,3,01,02,03,08,10,14,17,,,,,,1.3,1.0,0.8,1*2E
2025-07-17T12:24:07,015217700+02:00;$GAGSV,3,1,10,03,03,028,,07,43,142,,08,40,064,,13,39,104,,7*7E
2025-07-17T12:24:07,018194651+02:00;$GAGSV,3,2,10,23,11,243,,24,06,343,,26,81,313,,29,06,184,,7*7F
2025-07-17T12:24:07,019925897+02:00;$GAGSV,3,3,10,31,19,293,,33,30,289,,7*70
2025-07-17T12:24:07,022595742+02:00;$GPGSV,3,1,12,01,76,289,23,02,67,122,21,03,49,243,24,08,20,177,21,1*63
2025-07-17T12:24:07,024463181+02:00;$GPGSV,3,2,12,10,05,063,17,14,12,277,28,17,31,307,16,28,09,094,23,1*67
2025-07-17T12:24:07,026443453+02:00;$GPGSV,3,3,12,32,33,053,18,04,04,189,,19,08,320,,22,16,293,,1*67
2025-07-17T12:24:07,028103402+02:00;$GPGGA,102407.00,5224.103473,N,01044.997813,E,1,07,1.0,103.0,M,46.0,M,,*65
2025-07-17T12:24:07,029833240+02:00;$GPVTG,109.4,T,109.3,M,0.0,N,0.0,K,A*24
2025-07-17T12:24:07,033042097+02:00;$GPRMC,102407.00,A,5224.103473,N,01044.997813,E,0.0,109.4,170725,0.1,E,A,V*4B
2025-07-17T12:24:07,034600126+02:00;$GPGSA,A,3,01,02,03,08,10,14,17,,,,,,1.3,1.0,0.8,1*2E
2025-07-17T12:24:08,015712785+02:00;$GAGSV,3,1,10,03,03,028,,07,43,142,,08,40,064,,13,39,104,,7*7E
2025-07-17T12:24:08,017913859+02:00;$GAGSV,3,2,10,23,11,243,,24,06,343,,26,81,313,,29,06,184,,7*7F
2025-07-17T12:24:08,019887922+02:00;$GAGSV,3,3,10,31,19,293,,33,30,289,,7*70
2025-07-17T12:24:08,021809314+02:00;$GPGSV,3,1,12,01,76,289,24,02,67,122,22,03,49,243,23,08,20,177,22,1*63
2025-07-17T12:24:08,023542223+02:00;$GPGSV,3,2,12,10,05,063,17,14,12,277,29,17,31,307,16,28,09,094,22,1*67
2025-07-17T12:24:08,025120700+02:00;$GPGSV,3,3,12,32,33,053,16,04,04,189,,19,08,320,,22,16,293,,1*69
2025-07-17T12:24:08,026687881+02:00;$GPGGA,102408.00,5224.103472,N,01044.997815,E,1,08,0.9,103.0,M,46.0,M,,*6A
2025-07-17T12:24:08,028363958+02:00;$GPVTG,109.4,T,109.3,M,0.0,N,0.0,K,A*24
2025-07-17T12:24:08,029778337+02:00;$GPRMC,102408.00,A,5224.103472,N,01044.997815,E,0.0,109.4,170725,0.1,E,A,V*43
2025-07-17T12:24:08,031363950+02:00;$GPGSA,A,3,01,02,03,08,10,14,17,32,,,,,1.2,0.9,0.8,1*26
2025-07-17T12:24:09,014480211+02:00;$GAGSV,3,1,10,03,03,028,,07,43,142,,08,40,064,,13,39,104,,7*7E
2025-07-17T12:24:09,016603300+02:00;$GAGSV,3,2,10,23,11,243,,24,06,343,,26,81,313,,29,06,184,,7*7F
2025-07-17T12:24:09,019393242+02:00;$GAGSV,3,3,10,31,19,293,,33,30,289,,7*70
2025-07-17T12:24:09,021389066+02:00;$GPGSV,3,1,12,01,76,289,23,02,67,122,22,03,49,243,23,08,20,177,22,1*64
2025-07-17T12:24:09,023215257+02:00;$GPGSV,3,2,12,10,05,063,17,14,12,277,28,17,31,307,16,28,09,094,23,1*67
2025-07-17T12:24:09,026016623+02:00;$GPGSV,3,3,12,32,33,053,16,04,04,189,,19,08,320,,22,16,293,,1*69
2025-07-17T12:24:09,028303489+02:00;$GPGGA,102409.00,5224.103471,N,01044.997815,E,1,08,0.9,103.0,M,46.0,M,,*68
2025-07-17T12:24:09,030006063+02:00;$GPVTG,109.4,T,109.3,M,0.0,N,0.0,K,A*24
2025-07-17T12:24:09,032013535+02:00;$GPRMC,102409.00,A,5224.103471,N,01044.997815,E,0.0,109.4,170725,0.1,E,A,V*41
2025-07-17T12:24:09,033923183+02:00;$GPGSA,A,3,01,02,03,08,10,14,17,32,,,,,1.2,0.9,0.8,1*26
2025-07-17T12:24:10,014852995+02:00;$GAGSV,3,1,10,03,03,028,,07,43,142,,08,40,064,,13,39,104,,7*7E
2025-07-17T12:24:10,016293359+02:00;$GAGSV,3,2,10,23,11,243,,24,06,343,,26,81,313,,29,06,184,,7*7F
2025-07-17T12:24:10,017735066+02:00;$GAGSV,3,3,10,31,19,293,,33,30,289,,7*70
2025-07-17T12:24:10,019153990+02:00;$GPGSV,3,1,12,01,76,289,24,02,67,122,22,03,49,243,22,08,20,177,22,1*62
2025-07-17T12:24:10,020524049+02:00;$GPGSV,3,2,12,10,05,063,17,14,12,277,29,17,31,307,16,28,09,094,23,1*66
2025-07-17T12:24:10,021897116+02:00;$GPGSV,3,3,12,32,33,053,16,04,04,189,,19,08,320,,22,16,293,,1*69
2025-07-17T12:24:10,023273063+02:00;$GPGGA,102410.00,5224.103470,N,01044.997817,E,1,07,1.0,103.0,M,46.0,M,,*64
2025-07-17T12:24:10,024710003+02:00;$GPVTG,109.4,T,109.3,M,0.0,N,0.0,K,A*24
2025-07-17T12:24:10,026120478+02:00;$GPRMC,102410.00,A,5224.103470,N,01044.997817,E,0.0,109.4,170725,0.1,E,A,V*4A
2025-07-17T12:24:10,027678667+02:00;$GPGSA,A,3,01,02,03,08,10,14,32,,,,,,1.3,1.0,0.8,1*29
2025-07-17T12:24:11,015014324+02:00;$GAGSV,3,1,10,03,03,028,,07,43,142,,08,40,064,,13,39,104,,7*7E
2025-07-17T12:24:11,017221446+02:00;$GAGSV,3,2,10,23,11,243,,24,06,343,,26,81,313,,29,06,184,,7*7F
2025-07-17T12:24:11,019900827+02:00;$GAGSV,3,3,10,31,19,293,,33,30,289,,7*70
2025-07-17T12:24:11,021911308+02:00;$GPGSV,3,1,12,01,76,289,23,02,67,122,22,03,49,243,23,08,20,177,21,1*67
2025-07-17T12:24:11,023735930+02:00;$GPGSV,3,2,12,10,05,063,17,14,12,277,28,17,31,307,16,28,09,094,22,1*66
2025-07-17T12:24:11,025471752+02:00;$GPGSV,3,3,12,32,33,053,16,04,04,189,,19,08,320,,22,16,293,,1*69
2025-07-17T12:24:11,027097430+02:00;$GPGGA,102411.00,5224.103470,N,01044.997818,E,1,07,1.0,103.0,M,46.0,M,,*6A
2025-07-17T12:24:11,028681538+02:00;$GPVTG,109.4,T,109.3,M,0.0,N,0.0,K,A*24
2025-07-17T12:24:11,030204847+02:00;$GPRMC,102411.00,A,5224.103470,N,01044.997818,E,0.0,109.4,170725,0.1,E,A,V*44
2025-07-17T12:24:11,031942653+02:00;$GPGSA,A,3,01,02,03,08,10,14,32,,,,,,1.3,1.0,0.8,1*29
2025-07-17T12:24:12,014113950+02:00;$GAGSV,3,1,10,03,03,028,,07,43,142,,08,40,064,,13,39,104,,7*7E
2025-07-17T12:24:12,015786635+02:00;$GAGSV,3,2,10,23,11,243,,24,06,343,,26,81,313,,29,06,184,,7*7F
2025-07-17T12:24:12,017282807+02:00;$GAGSV,3,3,10,31,19,293,,33,30,289,,7*70
2025-07-17T12:24:12,019047622+02:00;$GPGSV,3,1,12,01,76,289,23,02,67,122,22,03,49,243,23,08,20,177,22,1*64
2025-07-17T12:24:12,020591506+02:00;$GPGSV,3,2,12,10,05,063,17,14,12,277,28,17,31,307,16,28,09,094,22,1*66
2025-07-17T12:24:12,022043230+02:00;$GPGSV,3,3,12,32,33,053,16,04,04,189,,19,08,320,,22,16,293,,1*69
2025-07-17T12:24:12,023547242+02:00;$GPGGA,102412.00,5224.103470,N,01044.997818,E,1,06,1.2,103.0,M,46.0,M,,*6A
2025-07-17T12:24:12,025089399+02:00;$GPVTG,109.4,T,109.3,M,0.0,N,0.0,K,A*24
2025-07-17T12:24:12,026583139+02:00;$GPRMC,102412.00,A,5224.103470,N,01044.997818,E,0.0,109.4,170725,0.1,E,A,V*47
2025-07-17T12:24:12,028008110+02:00;$GPGSA,A,3,01,02,03,08,14,32,,,,,,,1.4,1.2,0.8,1*2D
2025-07-17T12:24:13,013817869+02:00;$GAGSV,3,1,10,03,03,028,,07,43,142,,08,40,064,,13,39,104,,7*7E
2025-07-17T12:24:13,016265505+02:00;$GAGSV,3,2,10,23,11,243,,24,06,343,,26,81,313,,29,06,184,,7*7F
2025-07-17T12:24:13,017913583+02:00;$GAGSV,3,3,10,31,19,293,,33,30,289,,7*70
2025-07-17T12:24:13,020101632+02:00;$GPGSV,3,1,12,01,76,289,24,02,67,122,21,03,49,243,22,08,20,177,23,1*60
2025-07-17T12:24:13,022447956+02:00;$GPGSV,3,2,12,10,05,063,17,14,12,277,28,17,31,307,16,28,09,094,23,1*67
2025-07-17T12:24:13,024213154+02:00;$GPGSV,3,3,12,32,33,053,16,04,04,189,,19,08,320,,22,16,293,,1*69
2025-07-17T12:24:13,025786991+02:00;$GPGGA,102413.00,5224.103469,N,01044.997819,E,1,06,1.2,103.0,M,46.0,M,,*62
2025-07-17T12:24:13,028058177+02:00;$GPVTG,109.4,T,109.3,M,0.0,N,0.0,K,A*24
2025-07-17T12:24:13,029989841+02:00;$GPRMC,102413.00,A,5224.103469,N,01044.997819,E,0.0,109.4,170725,0.1,E,A,V*4F
2025-07-17T12:24:13,031486013+02:00;$GPGSA,A,3,01,02,03,08,14,32,,,,,,,1.4,1.2,0.8,1*2D
2025-07-17T12:24:14,013839201+02:00;$GAGSV,3,1,10,03,03,028,,07,43,142,,08,40,064,,13,39,104,,7*7E
2025-07-17T12:24:14,016586967+02:00;$GAGSV,3,2,10,23,11,243,,24,06,343,,26,81,313,,29,06,184,,7*7F
2025-07-17T12:24:14,018723656+02:00;$GAGSV,3,3,10,31,19,293,,33,30,289,,7*70
2025-07-17T12:24:14,021179901+02:00;$GPGSV,3,1,12,01,76,289,24,02,67,122,21,03,49,243,22,08,20,177,23,1*60
2025-07-17T12:24:14,023297262+02:00;$GPGSV,3,2,12,10,05,063,17,14,12,277,28,17,31,307,16,28,09,094,23,1*67
2025-07-17T12:24:14,025151101+02:00;$GPGSV,3,3,12,32,33,053,16,04,04,189,,19,08,320,,22,16,293,,1*69
2025-07-17T12:24:14,026695562+02:00;$GPGGA,102414.00,5224.103469,N,01044.997820,E,1,05,1.7,103.1,M,46.0,M,,*68
2025-07-17T12:24:14,028196758+02:00;$GPVTG,109.4,T,109.3,M,0.0,N,0.0,K,A*24
2025-07-17T12:24:14,029497569+02:00;$GPRMC,102414.00,A,5224.103469,N,01044.997820,E,0.0,109.4,170725,0.1,E,A,V*42
2025-07-17T12:24:14,031031213+02:00;$GPGSA,A,3,01,02,03,08,14,,,,,,,,1.9,1.7,0.9,1*25
2025-07-17T12:24:15,013885781+02:00;$GAGSV,3,1,10,03,03,028,,07,43,142,,08,40,064,,13,39,104,,7*7E
2025-07-17T12:24:15,016692044+02:00;$GAGSV,3,2,10,23,11,243,,24,06,343,,26,81,313,,29,06,184,,7*7F
2025-07-17T12:24:15,018589083+02:00;$GAGSV,3,3,10,31,19,293,,33,30,289,,7*70
2025-07-17T12:24:15,020171976+02:00;$GPGSV,3,1,12,01,76,289,23,02,67,122,21,03,49,243,22,08,20,177,23,1*67
2025-07-17T12:24:15,021865238+02:00;$GPGSV,3,2,12,10,05,063,17,14,12,277,28,17,31,307,16,28,09,094,23,1*67
2025-07-17T12:24:15,023488516+02:00;$GPGSV,3,3,12,32,33,053,16,04,04,189,,19,08,320,,22,16,293,,1*69
2025-07-17T12:24:15,025630869+02:00;$GPGGA,102415.00,5224.103469,N,01044.997820,E,1,05,1.7,103.1,M,46.0,M,,*69
2025-07-17T12:24:15,027325475+02:00;$GPVTG,109.4,T,109.3,M,0.0,N,0.0,K,A*24
2025-07-17T12:24:15,029608950+02:00;$GPRMC,102415.00,A,5224.103469,N,01044.997820,E,0.0,109.4,170725,0.1,E,A,V*43
2025-07-17T12:24:15,031602214+02:00;$GPGSA,A,3,01,02,03,08,14,,,,,,,,1.9,1.7,0.9,1*25
2025-07-17T12:24:16,014352749+02:00;$GAGSV,3,1,10,03,03,028,,07,43,142,,08,40,064,,13,39,104,,7*7E
2025-07-17T12:24:16,016397022+02:00;$GAGSV,3,2,10,23,11,243,,24,06,343,,26,81,313,,29,06,184,,7*7F
2025-07-17T12:24:16,018837298+02:00;$GAGSV,3,3,10,31,19,293,,33,30,289,,7*70
2025-07-17T12:24:16,020672161+02:00;$GPGSV,3,1,12,01,76,289,24,02,67,122,22,03,49,243,22,08,20,177,22,1*62
2025-07-17T12:24:16,022799603+02:00;$GPGSV,3,2,12,10,05,063,17,14,12,277,29,17,31,307,16,22,16,293,17,1*60
2025-07-17T12:24:16,024696354+02:00;$GPGSV,3,3,12,28,09,094,24,32,33,053,16,04,04,189,,19,08,320,,1*6E
2025-07-17T12:24:16,026259343+02:00;$GPGGA,102416.00,5224.103469,N,01044.997821,E,1,05,1.7,103.1,M,46.0,M,,*6B
2025-07-17T12:24:16,028390561+02:00;$GPVTG,109.4,T,109.3,M,0.0,N,0.0,K,A*24
2025-07-17T12:24:16,030137807+02:00;$GPRMC,102416.00,A,5224.103469,N,01044.997821,E,0.0,109.4,170725,0.1,E,A,V*41
2025-07-17T12:24:16,031971390+02:00;$GPGSA,A,3,01,02,03,08,14,,,,,,,,1.9,1.7,0.9,1*25
2025-07-17T12:24:17,014562467+02:00;$GAGSV,3,1,10,03,03,028,,07,43,142,,08,40,064,,13,39,104,,7*7E
2025-07-17T12:24:17,017391035+02:00;$GAGSV,3,2,10,23,11,243,,24,06,343,,26,81,313,,29,06,184,,7*7F
2025-07-17T12:24:17,019203402+02:00;$GAGSV,3,3,10,31,19,293,,33,30,289,,7*70
2025-07-17T12:24:17,020977368+02:00;$GPGSV,3,1,12,01,76,289,23,02,67,122,22,03,49,243,21,08,20,177,22,1*66
2025-07-17T12:24:17,022463109+02:00;$GPGSV,3,2,12,10,05,063,17,14,12,277,29,17,31,307,16,22,16,293,17,1*60
2025-07-17T12:24:17,024334900+02:00;$GPGSV,3,3,12,28,09,094,23,32,33,053,16,04,04,189,,19,08,320,,1*69
2025-07-17T12:24:17,026254980+02:00;$GPGGA,102417.00,5224.103469,N,01044.997822,E,1,05,1.7,103.1,M,46.0,M,,*69
2025-07-17T12:24:17,027731664+02:00;$GPVTG,109.4,T,109.3,M,0.0,N,0.0,K,A*24
2025-07-17T12:24:17,029414398+02:00;$GPRMC,102417.00,A,5224.103469,N,01044.997822,E,0.0,109.4,170725,0.1,E,A,V*43
2025-07-17T12:24:17,031326670+02:00;$GPGSA,A,3,01,02,03,08,14,,,,,,,,1.9,1.7,0.9,1*25
2025-07-17T12:24:18,014276757+02:00;$GAGSV,3,1,10,03,03,028,,07,43,142,,08,40,064,,13,39,104,,7*7E
2025-07-17T12:24:18,017049932+02:00;$GAGSV,3,2,10,23,11,243,,24,06,343,,26,81,313,,29,06,184,,7*7F
2025-07-17T12:24:18,019354528+02:00;$GAGSV,3,3,10,31,19,293,,33,30,289,,7*70
2025-07-17T12:24:18,021067278+02:00;$GPGSV,3,1,12,01,76,289,24,02,67,122,22,03,49,243,22,08,20,177,22,1*62
2025-07-17T12:24:18,022635003+02:00;$GPGSV,3,2,12,10,05,063,17,14,12,277,29,17,31,307,16,22,16,293,17,1*60
2025-07-17T12:24:18,024104807+02:00;$GPGSV,3,3,12,28,09,094,23,32,33,053,16,04,04,189,,19,08,320,,1*69
2025-07-17T12:24:18,025530835+02:00;$GPGGA,102418.00,5224.103470,N,01044.997822,E,1,05,1.7,103.1,M,46.0,M,,*6E
2025-07-17T12:24:18,026921278+02:00;$GPVTG,109.4,T,109.3,M,0.0,N,0.0,K,A*24
2025-07-17T12:24:18,028632557+02:00;$GPRMC,102418.00,A,5224.103470,N,01044.997822,E,0.0,109.4,170725,0.1,E,A,V*44
2025-07-17T12:24:18,030949600+02:00;$GPGSA,A,3,01,02,03,08,14,,,,,,,,1.9,1.7,0.9,1*25
2025-07-17T12:24:19,013829798+02:00;$GAGSV,3,1,10,03,03,028,,07,43,142,,08,40,064,,13,39,104,,7*7E
2025-07-17T12:24:19,017014977+02:00;$GAGSV,3,2,10,23,11,243,,24,06,343,,26,81,313,,29,06,184,,7*7F
2025-07-17T12:24:19,019060370+02:00;$GAGSV,3,3,10,31,19,293,,33,30,289,,7*70
2025-07-17T12:24:19,022075595+02:00;$GPGSV,3,1,12,01,76,289,23,02,67,122,21,03,49,243,22,08,20,177,22,1*66
2025-07-17T12:24:19,024370814+02:00;$GPGSV,3,2,12,10,05,063,17,14,12,277,29,17,31,307,16,22,16,293,17,1*60
2025-07-17T12:24:19,026389871+02:00;$GPGSV,3,3,12,28,09,094,23,32,33,053,16,04,04,189,,19,08,320,,1*69
2025-07-17T12:24:19,028388415+02:00;$GPGGA,102419.00,5224.103470,N,01044.997822,E,1,05,1.7,103.1,M,46.0,M,,*6F
2025-07-17T12:24:19,030893812+02:00;$GPVTG,109.4,T,109.3,M,0.0,N,0.0,K,A*24
2025-07-17T12:24:19,034095375+02:00;$GPRMC,102419.00,A,5224.103470,N,01044.997822,E,0.0,109.4,170725,0.1,E,A,V*45
2025-07-17T12:24:19,036519459+02:00;$GPGSA,A,3,01,02,03,08,14,,,,,,,,1.9,1.7,0.9,1*25
2025-07-17T12:24:20,013372790+02:00;$GAGSV,3,1,10,03,03,028,,07,43,142,,08,40,064,,13,39,104,,7*7E
2025-07-17T12:24:20,016406127+02:00;$GAGSV,3,2,10,23,11,243,,24,06,343,,26,81,313,,29,06,184,,7*7F
2025-07-17T12:24:20,019772779+02:00;$GAGSV,3,3,10,31,19,293,,33,30,289,,7*70
2025-07-17T12:24:20,022302977+02:00;$GPGSV,3,1,12,01,76,289,25,02,67,122,21,03,49,243,22,08,20,177,22,1*60
2025-07-17T12:24:20,024665460+02:00;$GPGSV,3,2,12,10,05,063,17,14,12,277,29,17,31,307,16,22,16,293,17,1*60
2025-07-17T12:24:20,027046024+02:00;$GPGSV,3,3,12,28,09,094,22,32,33,053,16,04,04,189,,19,08,320,,1*68
2025-07-17T12:24:20,029106970+02:00;$GPGGA,102420.00,5224.103470,N,01044.997822,E,1,05,1.7,103.1,M,46.0,M,,*65
2025-07-17T12:24:20,030755111+02:00;$GPVTG,109.4,T,109.3,M,0.0,N,0.0,K,A*24
2025-07-17T12:24:20,032239700+02:00;$GPRMC,102420.00,A,5224.103470,N,01044.997822,E,0.0,109.4,170725,0.1,E,A,V*4F
2025-07-17T12:24:20,033674624+02:00;$GPGSA,A,3,01,02,03,08,14,,,,,,,,1.9,1.7,0.9,1*25
2025-07-17T12:24:21,014977046+02:00;$GAGSV,3,1,10,03,03,028,,07,43,142,,08,40,064,,13,39,104,,7*7E
2025-07-17T12:24:21,016952135+02:00;$GAGSV,3,2,10,23,11,243,,24,06,343,,26,81,313,,29,06,184,,7*7F
2025-07-17T12:24:21,019550621+02:00;$GAGSV,3,3,10,31,19,293,,33,30,289,,7*70
2025-07-17T12:24:21,022102578+02:00;$GPGSV,3,1,12,01,76,289,24,02,67,122,20,03,49,243,20,08,20,177,22,1*62
2025-07-17T12:24:21,024124131+02:00;$GPGSV,3,2,12,10,05,063,17,14,12,277,29,17,31,307,16,22,16,293,17,1*60
2025-07-17T12:24:21,029467792+02:00;$GPGSV,3,3,12,28,09,094,24,32,33,053,16,04,04,189,,19,08,320,,1*6E
2025-07-17T12:24:21,031772963+02:00;$GPGGA,102421.00,5224.103470,N,01044.997822,E,1,05,1.7,103.1,M,46.0,M,,*64
2025-07-17T12:24:21,033814933+02:00;$GPVTG,109.4,T,109.3,M,0.0,N,0.0,K,A*24
2025-07-17T12:24:21,035886854+02:00;$GPRMC,102421.00,A,5224.103470,N,01044.997822,E,0.0,109.4,170725,0.1,E,A,V*4E
2025-07-17T12:24:21,037865559+02:00;$GPGSA,A,3,01,02,03,08,14,,,,,,,,1.9,1.7,0.9,1*25
2025-07-17T12:24:22,013623261+02:00;$GAGSV,3,1,10,03,03,028,,07,43,142,,08,40,064,,13,39,104,,7*7E
2025-07-17T12:24:22,017024058+02:00;$GAGSV,3,2,10,23,11,243,,24,06,343,,26,81,313,,29,06,184,,7*7F
2025-07-17T12:24:22,019963730+02:00;$GAGSV,3,3,10,31,19,293,,33,30,289,,7*70
2025-07-17T12:24:22,022675977+02:00;$GPGSV,3,1,12,01,76,289,24,02,67,122,20,03,49,243,23,08,20,177,22,1*61
2025-07-17T12:24:22,024583001+02:00;$GPGSV,3,2,12,10,05,063,17,14,12,277,29,17,31,307,16,22,16,293,17,1*60
2025-07-17T12:24:22,026591914+02:00;$GPGSV,3,3,12,28,09,094,22,32,33,053,16,04,04,189,,19,08,320,,1*68
2025-07-17T12:24:22,028900638+02:00;$GPGGA,102422.00,5224.103469,N,01044.997822,E,1,05,1.7,103.1,M,46.0,M,,*6F
2025-07-17T12:24:22,031036208+02:00;$GPVTG,109.4,T,109.3,M,0.0,N,0.0,K,A*24
2025-07-17T12:24:22,033059073+02:00;$GPRMC,102422.00,A,5224.103469,N,01044.997822,E,0.0,109.4,170725,0.1,E,A,V*45
2025-07-17T12:24:22,034805872+02:00;$GPGSA,A,3,01,02,03,08,14,,,,,,,,1.9,1.7,0.9,1*25
2025-07-17T12:24:23,013495949+02:00;$GAGSV,3,1,10,07,43,142,32,03,03,028,,08,40,064,,13,39,104,,7*7F
2025-07-17T12:24:23,016047714+02:00;$GAGSV,3,2,10,23,11,243,,24,06,343,,26,81,313,,29,06,184,,7*7F
2025-07-17T12:24:23,018407094+02:00;$GAGSV,3,3,10,31,19,293,,33,30,289,,7*70
2025-07-17T12:24:23,020336838+02:00;$GPGSV,3,1,12,01,76,289,24,02,67,122,20,03,49,243,21,08,20,177,22,1*63
2025-07-17T12:24:23,022069589+02:00;$GPGSV,3,2,12,10,05,063,17,14,12,277,29,17,31,307,16,22,16,293,17,1*60
2025-07-17T12:24:23,023535169+02:00;$GPGSV,3,3,12,28,09,094,22,32,33,053,16,04,04,189,,19,08,320,,1*68
2025-07-17T12:24:23,026254233+02:00;$GPGGA,102423.00,5224.103469,N,01044.997823,E,1,05,1.7,103.1,M,46.0,M,,*6F
2025-07-17T12:24:23,027926535+02:00;$GPVTG,109.4,T,109.3,M,0.0,N,0.0,K,A*24
2025-07-17T12:24:23,029417875+02:00;$GPRMC,102423.00,A,5224.103469,N,01044.997823,E,0.0,109.4,170725,0.1,E,A,V*45
2025-07-17T12:24:23,032190667+02:00;$GPGSA,A,3,01,02,03,08,14,,,,,,,,1.9,1.7,0.9,1*25
2025-07-17T12:24:24,014566085+02:00;$GAGSV,3,1,10,07,43,142,32,03,03,028,,08,40,064,,13,39,104,,7*7F
2025-07-17T12:24:24,017673759+02:00;$GAGSV,3,2,10,23,11,243,,24,06,343,,26,81,313,,29,06,184,,7*7F
2025-07-17T12:24:24,020120660+02:00;$GAGSV,3,3,10,31,19,293,,33,30,289,,7*70
2025-07-17T12:24:24,022019940+02:00;$GPGSV,3,1,12,01,77,289,24,02,67,123,20,03,49,243,21,08,19,177,21,1*6A
2025-07-17T12:24:24,024390264+02:00;$GPGSV,3,2,12,10,05,063,17,14,12,277,29,17,31,307,16,22,16,293,17,1*60
2025-07-17T12:24:24,026100839+02:00;$GPGSV,3,3,12,28,09,094,23,32,33,053,16,04,04,189,,19,08,320,,1*69
2025-07-17T12:24:24,027544659+02:00;$GPGGA,102424.00,5224.103468,N,01044.997825,E,1,05,1.7,103.1,M,46.0,M,,*6F
2025-07-17T12:24:24,028788446+02:00;$GPVTG,109.4,T,109.3,M,0.0,N,0.0,K,A*24
2025-07-17T12:24:24,030378603+02:00;$GPRMC,102424.00,A,5224.103468,N,01044.997825,E,0.0,109.4,170725,0.1,E,A,V*45
2025-07-17T12:24:24,031841784+02:00;$GPGSA,A,3,01,02,03,08,14,,,,,,,,1.9,1.7,0.9,1*25
2025-07-17T12:24:25,014176271+02:00;$GAGSV,3,1,10,07,43,142,31,03,03,028,,08,40,064,,13,39,104,,7*7C
2025-07-17T12:24:25,016684548+02:00;$GAGSV,3,2,10,23,11,243,,24,06,343,,26,81,313,,29,06,184,,7*7F
2025-07-17T12:24:25,020731559+02:00;$GAGSV,3,3,10,31,19,293,,33,30,289,,7*70
2025-07-17T12:24:25,029640435+02:00;$GPGSV,3,1,12,01,77,289,23,02,67,123,22,03,49,243,20,08,19,177,23,1*6C
2025-07-17T12:24:25,031208704+02:00;$GPGSV,3,2,12,10,05,063,17,14,12,277,28,22,16,293,17,28,09,094,24,1*6E
2025-07-17T12:24:25,033968344+02:00;$GPGSV,3,3,12,32,33,053,18,04,04,189,,17,31,307,,19,08,320,,1*68
2025-07-17T12:24:25,035655526+02:00;$GPGGA,102425.00,5224.103468,N,01044.997826,E,1,06,1.1,103.1,M,46.0,M,,*68
2025-07-17T12:24:25,037089362+02:00;$GPVTG,109.4,T,109.3,M,0.0,N,0.0,K,A*24
2025-07-17T12:24:25,039880938+02:00;$GPRMC,102425.00,A,5224.103468,N,01044.997826,E,0.0,109.4,170725,0.1,E,A,V*47
2025-07-17T12:24:25,041560376+02:00;$GPGSA,A,3,01,02,03,08,14,32,,,,,,,1.4,1.1,0.8,1*2E
2025-07-17T12:24:26,014218779+02:00;$GAGSV,3,1,10,07,43,142,30,03,03,028,,08,40,064,,13,39,104,,7*7D
2025-07-17T12:24:26,016467214+02:00;$GAGSV,3,2,10,23,11,243,,24,06,343,,26,81,313,,29,06,184,,7*7F
2025-07-17T12:24:26,018297694+02:00;$GAGSV,3,3,10,31,19,293,,33,30,289,,7*70
2025-07-17T12:24:26,020678898+02:00;$GPGSV,3,1,12,01,77,289,23,02,67,123,22,03,49,243,20,08,19,177,23,1*6C
2025-07-17T12:24:26,022378177+02:00;$GPGSV,3,2,12,14,12,277,29,22,16,293,17,28,09,094,22,32,33,053,18,1*60
2025-07-17T12:24:26,023999375+02:00;$GPGSV,3,3,12,04,04,189,,10,05,063,,17,31,307,,19,08,320,,1*67
2025-07-17T12:24:26,025560476+02:00;$GPGGA,102426.00,5224.103467,N,01044.997826,E,1,06,1.1,103.1,M,46.0,M,,*64
2025-07-17T12:24:26,028142386+02:00;$GPVTG,109.4,T,109.3,M,0.0,N,0.0,K,A*24
2025-07-17T12:24:26,030264388+02:00;$GPRMC,102426.00,A,5224.103467,N,01044.997826,E,0.0,109.4,170725,0.1,E,A,V*4B
2025-07-17T12:24:26,032263669+02:00;$GPGSA,A,3,01,02,03,08,14,32,,,,,,,1.4,1.1,0.8,1*2E
2025-07-17T12:24:27,012688535+02:00;$GAGSV,3,1,10,07,43,142,32,03,03,028,,08,40,064,,13,39,104,,7*7F
2025-07-17T12:24:27,014561031+02:00;$GAGSV,3,2,10,23,11,243,,24,06,343,,26,81,313,,29,06,184,,7*7F
2025-07-17T12:24:27,016111092+02:00;$GAGSV,3,3,10,31,19,293,,33,30,289,,7*70
2025-07-17T12:24:27,017632322+02:00;$GPGSV,3,1,12,01,77,289,24,02,67,123,22,03,49,243,20,08,19,177,21,1*69
2025-07-17T12:24:27,019063342+02:00;$GPGSV,3,2,12,14,12,277,29,22,16,293,17,28,09,094,22,32,33,053,18,1*60
2025-07-17T12:24:27,020877149+02:00;$GPGSV,3,3,12,04,04,189,,10,05,063,,17,31,307,,19,08,320,,1*67
2025-07-17T12:24:27,022301802+02:00;$GPGGA,102427.00,5224.103467,N,01044.997825,E,1,06,1.1,103.1,M,46.0,M,,*66
2025-07-17T12:24:27,023892023+02:00;$GPVTG,109.4,T,109.3,M,0.0,N,0.0,K,A*24
2025-07-17T12:24:27,025240835+02:00;$GPRMC,102427.00,A,5224.103467,N,01044.997825,E,0.0,109.4,170725,0.1,E,A,V*49
2025-07-17T12:24:27,026625359+02:00;$GPGSA,A,3,01,02,03,08,14,32,,,,,,,1.4,1.1,0.8,1*2E
2025-07-17T12:24:28,013904424+02:00;$GAGSV,3,1,10,07,43,142,32,03,03,028,,08,40,064,,13,39,104,,7*7F
2025-07-17T12:24:28,015990778+02:00;$GAGSV,3,2,10,23,11,243,,24,06,343,,26,81,313,,29,06,184,,7*7F
2025-07-17T12:24:28,017563112+02:00;$GAGSV,3,3,10,31,19,293,,33,30,289,,7*70
2025-07-17T12:24:28,019284727+02:00;$GPGSV,3,1,12,01,77,289,23,02,67,123,19,03,49,243,20,08,19,177,21,1*66
2025-07-17T12:24:28,021173095+02:00;$GPGSV,3,2,12,14,12,277,29,22,16,293,17,28,09,094,23,32,33,053,18,1*61
2025-07-17T12:24:28,022892886+02:00;$GPGSV,3,3,12,04,04,189,,10,05,063,,17,31,307,,19,08,320,,1*67
2025-07-17T12:24:28,024997736+02:00;$GPGGA,102428.00,5224.103467,N,01044.997826,E,1,06,1.2,103.1,M,46.0,M,,*69
2025-07-17T12:24:28,027020729+02:00;$GPVTG,109.4,T,109.3,M,0.0,N,0.0,K,A*24
2025-07-17T12:24:28,028839273+02:00;$GPRMC,102428.00,A,5224.103467,N,01044.997826,E,0.0,109.4,170725,0.1,E,A,V*45
2025-07-17T12:24:28,030441591+02:00;$GPGSA,A,3,01,02,03,08,14,32,,,,,,,1.5,1.2,0.8,1*2C
2025-07-17T12:24:29,014714164+02:00;$GAGSV,3,1,10,07,43,142,32,03,03,028,,08,40,064,,13,39,104,,7*7F
2025-07-17T12:24:29,017020904+02:00;$GAGSV,3,2,10,23,11,243,,24,06,343,,26,81,313,,29,06,184,,7*7F
2025-07-17T12:24:29,019506973+02:00;$GAGSV,3,3,10,31,19,293,,33,30,289,,7*70
2025-07-17T12:24:29,022390646+02:00;$GPGSV,3,1,12,01,77,289,22,02,67,123,19,03,49,243,20,08,19,177,21,1*67
2025-07-17T12:24:29,024489896+02:00;$GPGSV,3,2,12,14,12,277,29,22,16,293,17,28,09,094,21,32,33,053,18,1*63
2025-07-17T12:24:29,026613722+02:00;$GPGSV,3,3,12,04,04,189,,10,05,063,,17,31,307,,19,08,320,,1*67
2025-07-17T12:24:29,029277841+02:00;$GPGGA,102429.00,5224.103467,N,01044.997825,E,1,06,1.1,103.1,M,46.0,M,,*68
2025-07-17T12:24:29,031358627+02:00;$GPVTG,109.4,T,109.3,M,0.0,N,0.0,K,A*24
2025-07-17T12:24:29,033295028+02:00;$GPRMC,102429.00,A,5224.103467,N,01044.997825,E,0.0,109.4,170725,0.1,E,A,V*47
2025-07-17T12:24:29,035132388+02:00;$GPGSA,A,3,01,02,03,08,14,32,,,,,,,1.4,1.1,0.8,1*2E
2025-07-17T12:24:30,013964494+02:00;$GAGSV,3,1,10,07,43,142,32,03,03,028,,08,40,064,,13,39,104,,7*7F
2025-07-17T12:24:30,016060993+02:00;$GAGSV,3,2,10,23,11,243,,24,06,343,,26,81,313,,29,06,184,,7*7F
2025-07-17T12:24:30,020242981+02:00;$GAGSV,3,3,10,31,19,293,,33,30,289,,7*70
2025-07-17T12:24:30,022207638+02:00;$GPGSV,3,1,12,01,77,289,23,02,67,123,19,03,49,243,20,08,19,177,22,1*65
2025-07-17T12:24:30,024232615+02:00;$GPGSV,3,2,12,14,12,277,30,17,31,307,18,22,16,293,17,28,09,094,22,1*6F
2025-07-17T12:24:30,026063927+02:00;$GPGSV,3,3,12,32,33,053,18,04,04,189,,10,05,063,,19,08,320,,1*69
2025-07-17T12:24:30,027848295+02:00;$GPGGA,102430.00,5224.103466,N,01044.997825,E,1,07,1.0,103.1,M,46.0,M,,*61
2025-07-17T12:24:30,030021178+02:00;$GPVTG,109.4,T,109.3,M,0.0,N,0.0,K,A*24
2025-07-17T12:24:30,032534127+02:00;$GPRMC,102430.00,A,5224.103466,N,01044.997825,E,0.0,109.4,170725,0.1,E,A,V*4E
2025-07-17T12:24:30,034361759+02:00;$GPGSA,A,3,01,02,03,08,14,17,32,,,,,,1.3,1.0,0.8,1*2E
2025-07-17T12:24:31,014840692+02:00;$GAGSV,3,1,10,07,43,142,31,03,03,028,,08,40,064,,13,39,104,,7*7C
2025-07-17T12:24:31,017897807+02:00;$GAGSV,3,2,10,23,11,243,,24,06,343,,26,81,313,,29,06,184,,7*7F
2025-07-17T12:24:31,019951745+02:00;$GAGSV,3,3,10,31,19,293,,33,30,289,,7*70
2025-07-17T12:24:31,021799761+02:00;$GPGSV,3,1,12,01,77,289,23,02,67,123,19,03,49,243,22,08,19,177,23,1*66
2025-07-17T12:24:31,023496192+02:00;$GPGSV,3,2,12,14,12,277,30,17,31,307,19,22,16,293,16,28,09,094,23,1*6E
2025-07-17T12:24:31,025254703+02:00;$GPGSV,3,3,12,32,33,053,18,04,04,189,,10,05,063,,19,08,320,,1*69
2025-07-17T12:24:31,026948510+02:00;$GPGGA,102431.00,5224.103466,N,01044.997823,E,1,07,1.0,103.0,M,46.0,M,,*67
2025-07-17T12:24:31,029255986+02:00;$GPVTG,109.4,T,109.3,M,0.0,N,0.0,K,A*24
2025-07-17T12:24:31,031759815+02:00;$GPRMC,102431.00,A,5224.103466,N,01044.997823,E,0.0,109.4,170725,0.1,E,A,V*49
2025-07-17T12:24:31,033785241+02:00;$GPGSA,A,3,01,02,03,08,14,17,32,,,,,,1.3,1.0,0.8,1*2E
2025-07-17T12:24:32,014457804+02:00;$GAGSV,3,1,10,07,43,142,31,03,03,028,,08,40,064,,13,39,104,,7*7C
2025-07-17T12:24:32,016243547+02:00;$GAGSV,3,2,10,23,11,243,,24,06,343,,26,81,313,,29,06,184,,7*7F
2025-07-17T12:24:32,018059339+02:00;$GAGSV,3,3,10,31,19,293,,33,30,289,,7*70
2025-07-17T12:24:32,019890299+02:00;$GPGSV,3,1,12,01,77,289,24,02,67,123,19,03,49,243,22,08,19,177,22,1*60
2025-07-17T12:24:32,021639114+02:00;$GPGSV,3,2,12,14,12,277,29,17,31,307,19,22,16,293,16,28,09,094,23,1*66
2025-07-17T12:24:32,023480123+02:00;$GPGSV,3,3,12,32,33,053,18,04,04,189,,10,05,063,,19,08,320,,1*69
2025-07-17T12:24:32,025453036+02:00;$GPGGA,102432.00,5224.103466,N,01044.997823,E,1,07,1.0,103.0,M,46.0,M,,*64
2025-07-17T12:24:32,028182180+02:00;$GPVTG,109.4,T,109.3,M,0.0,N,0.0,K,A*24
2025-07-17T12:24:32,030444151+02:00;$GPRMC,102432.00,A,5224.103466,N,01044.997823,E,0.0,109.4,170725,0.1,E,A,V*4A
2025-07-17T12:24:32,032896397+02:00;$GPGSA,A,3,01,02,03,08,14,17,32,,,,,,1.3,1.0,0.8,1*2E
2025-07-17T12:24:33,013835774+02:00;$GAGSV,3,1,10,07,43,142,32,03,03,028,,08,40,064,,13,39,104,,7*7F
2025-07-17T12:24:33,015884336+02:00;$GAGSV,3,2,10,23,11,243,,24,06,343,,26,81,313,,29,06,184,,7*7F
2025-07-17T12:24:33,017730656+02:00;$GAGSV,3,3,10,31,19,293,,33,30,289,,7*70
2025-07-17T12:24:33,019841330+02:00;$GPGSV,3,1,12,01,77,289,22,02,67,123,19,03,49,243,22,08,19,177,22,1*66
2025-07-17T12:24:33,021744355+02:00;$GPGSV,3,2,12,14,12,277,29,17,31,307,19,22,16,293,16,28,09,094,23,1*66
2025-07-17T12:24:33,023925654+02:00;$GPGSV,3,3,12,32,33,053,18,04,04,189,,10,05,063,,19,08,320,,1*69
2025-07-17T12:24:33,026631374+02:00;$GPGGA,102433.00,5224.103466,N,01044.997821,E,1,07,1.0,103.0,M,46.0,M,,*67
2025-07-17T12:24:33,028508062+02:00;$GPVTG,109.4,T,109.3,M,0.0,N,0.0,K,A*24
2025-07-17T12:24:33,030354574+02:00;$GPRMC,102433.00,A,5224.103466,N,01044.997821,E,0.0,109.4,170725,0.1,E,A,V*49
2025-07-17T12:24:33,032814436+02:00;$GPGSA,A,3,01,02,03,08,14,17,32,,,,,,1.3,1.0,0.8,1*2E
2025-07-17T12:24:34,014497015+02:00;$GAGSV,3,1,10,07,43,142,32,03,03,028,,08,40,064,,13,39,104,,7*7F
2025-07-17T12:24:34,016349383+02:00;$GAGSV,3,2,10,23,11,243,,24,06,343,,26,81,313,,29,06,184,,7*7F
2025-07-17T12:24:34,017923669+02:00;$GAGSV,3,3,10,31,19,293,,33,30,289,,7*70
2025-07-17T12:24:34,019622468+02:00;$GPGSV,3,1,12,01,77,289,23,02,67,123,19,03,49,243,20,08,19,177,21,1*66
2025-07-17T12:24:34,021188114+02:00;$GPGSV,3,2,12,14,12,277,29,17,31,307,19,22,16,293,16,28,09,094,23,1*66
2025-07-17T12:24:34,022900737+02:00;$GPGSV,3,3,12,32,33,053,18,04,04,189,,10,05,063,,19,08,320,,1*69
2025-07-17T12:24:34,024784369+02:00;$GPGGA,102434.00,5224.103467,N,01044.997819,E,1,07,1.0,103.0,M,46.0,M,,*6A
2025-07-17T12:24:34,028008814+02:00;$GPVTG,109.4,T,109.3,M,0.0,N,0.0,K,A*24
2025-07-17T12:24:34,030162688+02:00;$GPRMC,102434.00,A,5224.103467,N,01044.997819,E,0.0,109.4,170725,0.1,E,A,V*44
2025-07-17T12:24:34,032005841+02:00;$GPGSA,A,3,01,02,03,08,14,17,32,,,,,,1.3,1.0,0.8,1*2E
2025-07-17T12:24:35,014795625+02:00;$GAGSV,3,1,10,07,43,142,32,03,03,028,,08,40,064,,13,39,104,,7*7F
2025-07-17T12:24:35,016530840+02:00;$GAGSV,3,2,10,23,11,243,,24,06,343,,26,81,313,,29,06,184,,7*7F
2025-07-17T12:24:35,018029830+02:00;$GAGSV,3,3,10,31,19,293,,33,30,289,,7*70
2025-07-17T12:24:35,019374641+02:00;$GPGSV,3,1,12,01,77,289,22,02,67,123,19,03,49,243,23,08,19,177,22,1*67
2025-07-17T12:24:35,020627388+02:00;$GPGSV,3,2,12,14,12,277,29,17,31,307,19,22,16,293,16,28,09,094,22,1*67
2025-07-17T12:24:35,022153322+02:00;$GPGSV,3,3,12,32,33,053,18,04,04,189,,10,05,063,,19,08,320,,1*69
2025-07-17T12:24:35,023719928+02:00;$GPGGA,102435.00,5224.103467,N,01044.997817,E,1,07,1.0,103.0,M,46.0,M,,*65
2025-07-17T12:24:35,024925826+02:00;$GPVTG,109.4,T,109.3,M,0.0,N,0.0,K,A*24
2025-07-17T12:24:35,026251374+02:00;$GPRMC,102435.00,A,5224.103467,N,01044.997817,E,0.0,109.4,170725,0.1,E,A,V*4B
2025-07-17T12:24:35,027744731+02:00;$GPGSA,A,3,01,02,03,08,14,17,32,,,,,,1.3,1.0,0.8,1*2E
2025-07-17T12:24:36,012781538+02:00;$GAGSV,3,1,10,07,43,142,32,03,03,028,,08,40,064,,13,39,104,,7*7F
2025-07-17T12:24:36,014739828+02:00;$GAGSV,3,2,10,23,11,243,,24,06,343,,26,81,313,,29,06,184,,7*7F
2025-07-17T12:24:36,016241761+02:00;$GAGSV,3,3,10,31,19,293,,33,30,289,,7*70
2025-07-17T12:24:36,017896080+02:00;$GPGSV,3,1,12,01,77,289,22,02,67,123,19,03,49,243,23,08,19,177,22,1*67
2025-07-17T12:24:36,019621727+02:00;$GPGSV,3,2,12,14,12,277,29,17,31,307,19,22,16,293,16,28,09,094,23,1*66
2025-07-17T12:24:36,021045227+02:00;$GPGSV,3,3,12,32,33,053,18,04,04,189,,10,05,063,,19,08,320,,1*69
2025-07-17T12:24:36,022703258+02:00;$GPGGA,102436.00,5224.103467,N,01044.997816,E,1,07,1.0,103.0,M,46.0,M,,*67
2025-07-17T12:24:36,024425545+02:00;$GPVTG,109.4,T,109.3,M,0.0,N,0.0,K,A*24
2025-07-17T12:24:36,026028824+02:00;$GPRMC,102436.00,A,5224.103467,N,01044.997816,E,0.0,109.4,170725,0.1,E,A,V*49
2025-07-17T12:24:36,027799847+02:00;$GPGSA,A,3,01,02,03,08,14,17,32,,,,,,1.3,1.0,0.8,1*2E
2025-07-17T12:24:37,014159797+02:00;$GAGSV,3,1,10,07,43,142,32,03,03,028,,08,40,064,,13,39,104,,7*7F
2025-07-17T12:24:37,016023686+02:00;$GAGSV,3,2,10,23,11,243,,24,06,343,,26,81,313,,29,06,184,,7*7F
2025-07-17T12:24:37,017610388+02:00;$GAGSV,3,3,10,31,19,293,,33,30,289,,7*70
2025-07-17T12:24:37,019234338+02:00;$GPGSV,3,1,12,01,77,289,22,02,67,123,20,03,49,243,20,08,19,177,22,1*6E
2025-07-17T12:24:37,021530103+02:00;$GPGSV,3,2,12,14,12,277,29,17,31,307,19,22,16,293,16,28,09,094,21,1*64
2025-07-17T12:24:37,023432872+02:00;$GPGSV,3,3,12,32,33,053,18,04,04,189,,10,05,063,,19,08,320,,1*69
2025-07-17T12:24:37,024940949+02:00;$GPGGA,102437.00,5224.103468,N,01044.997816,E,1,07,1.0,103.0,M,46.0,M,,*69
2025-07-17T12:24:37,027380299+02:00;$GPVTG,109.4,T,109.3,M,0.0,N,0.0,K,A*24
2025-07-17T12:24:37,028907416+02:00;$GPRMC,102437.00,A,5224.103468,N,01044.997816,E,0.0,109.4,170725,0.1,E,A,V*47
2025-07-17T12:24:37,031966067+02:00;$GPGSA,A,3,01,02,03,08,14,17,32,,,,,,1.3,1.0,0.8,1*2E
2025-07-17T12:24:38,014308057+02:00;$GAGSV,3,1,10,07,43,142,32,03,03,028,,08,40,064,,13,39,104,,7*7F
2025-07-17T12:24:38,015828230+02:00;$GAGSV,3,2,10,23,11,243,,24,06,343,,26,81,313,,29,06,184,,7*7F
2025-07-17T12:24:38,017742743+02:00;$GAGSV,3,3,10,31,19,293,,33,30,289,,7*70
2025-07-17T12:24:38,019121924+02:00;$GPGSV,3,1,12,01,77,289,23,02,67,123,20,03,49,243,22,08,19,177,19,1*65
2025-07-17T12:24:38,020428399+02:00;$GPGSV,3,2,12,14,12,277,29,17,31,307,19,22,16,293,16,28,09,094,23,1*66
2025-07-17T12:24:38,022366017+02:00;$GPGSV,3,3,12,32,33,053,20,04,04,189,,10,05,063,,19,08,320,,1*62
2025-07-17T12:24:38,023853006+02:00;$GPGGA,102438.00,5224.103468,N,01044.997815,E,1,07,1.0,103.0,M,46.0,M,,*65
2025-07-17T12:24:38,025145689+02:00;$GPVTG,109.4,T,109.3,M,0.0,N,0.0,K,A*24
2025-07-17T12:24:38,027506478+02:00;$GPRMC,102438.00,A,5224.103468,N,01044.997815,E,0.0,109.4,170725,0.1,E,A,V*4B
2025-07-17T12:24:38,030427496+02:00;$GPGSA,A,3,01,02,03,08,14,17,32,,,,,,1.3,1.0,0.8,1*2E
2025-07-17T12:24:39,013756721+02:00;$GAGSV,3,1,10,07,43,142,32,03,03,028,,08,40,064,,13,39,104,,7*7F
2025-07-17T12:24:39,015585506+02:00;$GAGSV,3,2,10,23,11,243,,24,06,343,,26,81,313,,29,06,184,,7*7F
2025-07-17T12:24:39,017193648+02:00;$GAGSV,3,3,10,31,19,293,,33,30,289,,7*70
2025-07-17T12:24:39,018824862+02:00;$GPGSV,3,1,12,01,77,289,23,02,67,123,20,03,49,243,22,08,19,177,19,1*65
2025-07-17T12:24:39,020508909+02:00;$GPGSV,3,2,12,14,12,277,30,17,31,307,22,22,16,293,17,28,09,094,22,1*66
2025-07-17T12:24:39,022159996+02:00;$GPGSV,3,3,12,32,33,053,20,04,04,189,,10,05,063,,19,08,320,,1*62
2025-07-17T12:24:39,024009325+02:00;$GPGGA,102439.00,5224.103468,N,01044.997816,E,1,07,1.0,103.0,M,46.0,M,,*67
2025-07-17T12:24:39,025522426+02:00;$GPVTG,109.4,T,109.3,M,0.0,N,0.0,K,A*24
2025-07-17T12:24:39,027049480+02:00;$GPRMC,102439.00,A,5224.103468,N,01044.997816,E,0.0,109.4,170725,0.1,E,A,V*49
2025-07-17T12:24:39,028534709+02:00;$GPGSA,A,3,01,02,03,08,14,17,32,,,,,,1.3,1.0,0.8,1*2E
2025-07-17T12:24:40,014896244+02:00;$GAGSV,3,1,10,07,43,142,32,03,03,028,,08,40,064,,13,39,104,,7*7F
2025-07-17T12:24:40,016802725+02:00;$GAGSV,3,2,10,23,11,243,,24,06,343,,26,81,313,,29,06,184,,7*7F
2025-07-17T12:24:40,018692373+02:00;$GAGSV,3,3,10,31,19,293,,33,30,289,,7*70
2025-07-17T12:24:40,020273028+02:00;$GPGSV,3,1,12,01,77,289,23,02,67,123,20,03,49,243,22,08,19,177,21,1*6E
2025-07-17T12:24:40,022102740+02:00;$GPGSV,3,2,12,14,12,277,29,17,31,307,22,22,16,293,17,28,09,094,22,1*6E
2025-07-17T12:24:40,023981605+02:00;$GPGSV,3,3,12,32,33,053,20,04,04,189,,10,05,063,,19,08,320,,1*62
2025-07-17T12:24:40,025523987+02:00;$GPGGA,102440.00,5224.103467,N,01044.997815,E,1,07,1.0,103.0,M,46.0,M,,*65
2025-07-17T12:24:40,027359267+02:00;$GPVTG,109.4,T,109.3,M,0.0,N,0.0,K,A*24
2025-07-17T12:24:40,030040411+02:00;$GPRMC,102440.00,A,5224.103467,N,01044.997815,E,0.0,109.4,170725,0.1,E,A,V*4B
2025-07-17T12:24:40,031860427+02:00;$GPGSA,A,3,01,02,03,08,14,17,32,,,,,,1.3,1.0,0.8,1*2E
2025-07-17T12:24:41,014680036+02:00;$GAGSV,3,1,10,07,43,142,32,03,03,028,,08,40,064,,13,39,104,,7*7F
2025-07-17T12:24:41,016993497+02:00;$GAGSV,3,2,10,23,11,243,,24,06,343,,26,81,313,,29,06,184,,7*7F
2025-07-17T12:24:41,018697897+02:00;$GAGSV,3,3,10,31,19,293,,33,30,289,,7*70
2025-07-17T12:24:41,020723739+02:00;$GPGSV,3,1,12,01,77,289,24,02,67,123,20,03,49,243,20,08,19,177,21,1*6B
2025-07-17T12:24:41,022612780+02:00;$GPGSV,3,2,12,14,12,277,29,17,31,307,22,22,16,293,20,28,09,094,22,1*6A
2025-07-17T12:24:41,024793663+02:00;$GPGSV,3,3,12,32,33,053,20,04,04,189,,10,05,063,,19,08,320,,1*62
2025-07-17T12:24:41,027240821+02:00;$GPGGA,102441.00,5224.103467,N,01044.997816,E,1,07,1.0,103.0,M,46.0,M,,*67
2025-07-17T12:24:41,029505225+02:00;$GPVTG,109.4,T,109.3,M,0.0,N,0.0,K,A*24
2025-07-17T12:24:41,031854559+02:00;$GPRMC,102441.00,A,5224.103467,N,01044.997816,E,0.0,109.4,170725,0.1,E,A,V*49
2025-07-17T12:24:41,033560398+02:00;$GPGSA,A,3,01,02,03,08,14,17,32,,,,,,1.3,1.0,0.8,1*2E
2025-07-17T12:24:42,014317103+02:00;$GAGSV,3,1,10,07,43,142,32,03,03,028,,08,40,064,,13,39,104,,7*7F
2025-07-17T12:24:42,016522626+02:00;$GAGSV,3,2,10,23,11,243,,24,06,343,,26,81,313,,29,06,184,,7*7F
2025-07-17T12:24:42,018442388+02:00;$GAGSV,3,3,10,31,19,293,,33,30,289,,7*70
2025-07-17T12:24:42,020278020+02:00;$GPGSV,3,1,12,01,77,289,24,02,67,123,20,03,49,243,20,08,19,177,20,1*6A
2025-07-17T12:24:42,023378624+02:00;$GPGSV,3,2,12,14,12,277,30,17,31,307,20,22,16,293,20,28,09,094,21,1*63
2025-07-17T12:24:42,025442067+02:00;$GPGSV,3,3,12,32,33,053,20,04,04,189,,10,05,063,,19,08,320,,1*62
2025-07-17T12:24:42,027076577+02:00;$GPGGA,102442.00,5224.103467,N,01044.997817,E,1,07,1.0,103.0,M,46.0,M,,*65
2025-07-17T12:24:42,029376534+02:00;$GPVTG,109.4,T,109.3,M,0.0,N,0.0,K,A*24
2025-07-17T12:24:42,031877069+02:00;$GPRMC,102442.00,A,5224.103467,N,01044.997817,E,0.0,109.4,170725,0.1,E,A,V*4B
2025-07-17T12:24:42,035019881+02:00;$GPGSA,A,3,01,02,03,08,14,17,32,,,,,,1.3,1.0,0.8,1*2E
2025-07-17T12:24:43,013921779+02:00;$GAGSV,3,1,10,07,43,142,31,03,03,028,,08,40,064,,13,39,104,,7*7C
2025-07-17T12:24:43,015876388+02:00;$GAGSV,3,2,10,23,11,243,,24,06,343,,26,81,313,,29,06,184,,7*7F
2025-07-17T12:24:43,018428571+02:00;$GAGSV,3,3,10,31,19,293,,33,30,289,,7*70
2025-07-17T12:24:43,020213419+02:00;$GPGSV,3,1,12,01,77,289,22,02,67,123,19,03,49,243,20,08,19,177,20,1*66
2025-07-17T12:24:43,021872666+02:00;$GPGSV,3,2,12,14,12,277,29,17,31,307,20,22,16,293,20,28,09,094,23,1*69
2025-07-17T12:24:43,023458345+02:00;$GPGSV,3,3,12,32,33,053,17,04,04,189,,10,05,063,,19,08,320,,1*66
2025-07-17T12:24:43,024970806+02:00;$GPGGA,102443.00,5224.103467,N,01044.997817,E,1,07,1.0,103.0,M,46.0,M,,*64
2025-07-17T12:24:43,027377260+02:00;$GPVTG,109.4,T,109.3,M,0.0,N,0.0,K,A*24
2025-07-17T12:24:43,029142908+02:00;$GPRMC,102443.00,A,5224.103467,N,01044.997817,E,0.0,109.4,170725,0.1,E,A,V*4A
2025-07-17T12:24:43,030607689+02:00;$GPGSA,A,3,01,02,03,08,14,17,32,,,,,,1.3,1.0,0.8,1*2E
2025-07-17T12:24:44,013885652+02:00;$GAGSV,3,1,10,07,43,142,32,03,03,028,,08,40,064,,13,39,104,,7*7F
2025-07-17T12:24:44,015799333+02:00;$GAGSV,3,2,10,23,11,243,,24,06,343,,26,81,313,,29,06,184,,7*7F
2025-07-17T12:24:44,017571637+02:00;$GAGSV,3,3,10,31,19,293,,33,30,289,,7*70
2025-07-17T12:24:44,019177700+02:00;$GPGSV,3,1,12,01,77,289,23,02,67,123,19,03,49,243,20,08,19,177,21,1*66
2025-07-17T12:24:44,020742002+02:00;$GPGSV,3,2,12,14,12,277,30,17,31,307,21,22,16,293,19,28,09,094,23,1*6A
2025-07-17T12:24:44,022236864+02:00;$GPGSV,3,3,12,32,33,053,17,04,04,189,,10,05,063,,19,08,320,,1*66
2025-07-17T12:24:44,023737645+02:00;$GPGGA,102444.00,5224.103467,N,01044.997817,E,1,07,1.0,103.0,M,46.0,M,,*63
2025-07-17T12:24:44,025359292+02:00;$GPVTG,109.4,T,109.3,M,0.0,N,0.0,K,A*24
2025-07-17T12:24:44,026994891+02:00;$GPRMC,102444.00,A,5224.103467,N,01044.997817,E,0.0,109.4,170725,0.1,E,A,V*4D
2025-07-17T12:24:44,028623289+02:00;$GPGSA,A,3,01,02,03,08,14,17,32,,,,,,1.3,1.0,0.8,1*2E
2025-07-17T12:24:45,017085133+02:00;$GAGSV,3,1,10,07,43,142,31,03,03,028,,08,40,064,,13,39,104,,7*7C
2025-07-17T12:24:45,019081151+02:00;$GAGSV,3,2,10,23,11,243,,24,06,343,,26,81,313,,29,06,184,,7*7F
2025-07-17T12:24:45,021188786+02:00;$GAGSV,3,3,10,31,19,293,,33,30,289,,7*70
2025-07-17T12:24:45,023729705+02:00;$GPGSV,3,1,12,01,77,289,24,02,67,123,19,03,49,243,20,08,19,177,21,1*61
2025-07-17T12:24:45,026556387+02:00;$GPGSV,3,2,12,14,12,277,29,17,31,307,21,22,16,293,19,28,09,094,21,1*60
2025-07-17T12:24:45,028519636+02:00;$GPGSV,3,3,12,32,33,053,17,04,04,189,,10,05,063,,19,08,320,,1*66
2025-07-17T12:24:45,030511814+02:00;$GPGGA,102445.00,5224.103467,N,01044.997817,E,1,07,1.0,103.0,M,46.0,M,,*62
2025-07-17T12:24:45,032970717+02:00;$GPVTG,109.4,T,109.3,M,0.0,N,0.0,K,A*24
2025-07-17T12:24:45,035929656+02:00;$GPRMC,102445.00,A,5224.103467,N,01044.997817,E,0.0,109.4,170725,0.1,E,A,V*4C
2025-07-17T12:24:45,037680743+02:00;$GPGSA,A,3,01,02,03,08,14,17,32,,,,,,1.3,1.0,0.8,1*2E
2025-07-17T12:24:46,018189772+02:00;$GAGSV,3,1,10,07,43,142,31,03,03,028,,08,40,064,,13,39,104,,7*7C
2025-07-17T12:24:46,020190110+02:00;$GAGSV,3,2,10,23,11,243,,24,06,343,,26,81,313,,29,06,184,,7*7F
2025-07-17T12:24:46,021892110+02:00;$GAGSV,3,3,10,31,19,293,,33,30,289,,7*70
2025-07-17T12:24:46,023775519+02:00;$GPGSV,3,1,12,01,77,289,23,02,67,123,19,03,49,243,20,08,19,177,21,1*66
2025-07-17T12:24:46,025535471+02:00;$GPGSV,3,2,12,14,12,277,29,17,31,307,21,22,16,293,19,28,09,094,21,1*60
2025-07-17T12:24:46,026998812+02:00;$GPGSV,3,3,12,32,33,053,17,04,04,189,,10,05,063,,19,08,320,,1*66
2025-07-17T12:24:46,028566794+02:00;$GPGGA,102446.00,5224.103467,N,01044.997818,E,1,07,1.0,103.0,M,46.0,M,,*6E
2025-07-17T12:24:46,030130425+02:00;$GPVTG,109.4,T,109.3,M,0.0,N,0.0,K,A*24
2025-07-17T12:24:46,032732688+02:00;$GPRMC,102446.00,A,5224.103467,N,01044.997818,E,0.0,109.4,170725,0.1,E,A,V*40
2025-07-17T12:24:46,034760259+02:00;$GPGSA,A,3,01,02,03,08,14,17,32,,,,,,1.3,1.0,0.8,1*2E
2025-07-17T12:24:47,017870840+02:00;$GAGSV,3,1,10,07,43,142,31,03,03,028,,08,40,064,,13,39,104,,7*7C
2025-07-17T12:24:47,019718569+02:00;$GAGSV,3,2,10,23,11,243,,24,06,343,,26,81,313,,29,06,184,,7*7F
2025-07-17T12:24:47,022015422+02:00;$GAGSV,3,3,10,31,19,293,,33,30,289,,7*70
2025-07-17T12:24:47,024986521+02:00;$GPGSV,3,1,12,01,77,289,23,02,67,123,19,03,49,243,20,08,19,177,19,1*6D
2025-07-17T12:24:47,026693704+02:00;$GPGSV,3,2,12,14,12,277,29,17,31,307,21,22,16,293,19,28,09,094,21,1*60
2025-07-17T12:24:47,029818533+02:00;$GPGSV,3,3,12,32,33,053,17,04,04,189,,10,05,063,,19,08,320,,1*66
2025-07-17T12:24:47,031587573+02:00;$GPGGA,102447.00,5224.103467,N,01044.997818,E,1,07,1.0,103.0,M,46.0,M,,*6F
2025-07-17T12:24:47,033022562+02:00;$GPVTG,109.4,T,109.3,M,0.0,N,0.0,K,A*24
2025-07-17T12:24:47,035808476+02:00;$GPRMC,102447.00,A,5224.103467,N,01044.997818,E,0.0,109.4,170725,0.1,E,A,V*41
2025-07-17T12:24:47,039546622+02:00;$GPGSA,A,3,01,02,03,08,14,17,32,,,,,,1.3,1.0,0.8,1*2E
2025-07-17T12:24:48,018057666+02:00;$GAGSV,3,1,10,07,43,142,31,03,03,028,,08,40,064,,13,39,104,,7*7C
2025-07-17T12:24:48,021097949+02:00;$GAGSV,3,2,10,23,11,243,,24,06,343,,26,81,313,,29,06,184,,7*7F
2025-07-17T12:24:48,022993231+02:00;$GAGSV,3,3,10,31,19,293,,33,30,289,,7*70
2025-07-17T12:24:48,024624702+02:00;$GPGSV,3,1,12,01,77,289,25,02,67,123,19,03,49,243,20,08,19,177,19,1*6B
2025-07-17T12:24:48,026207372+02:00;$GPGSV,3,2,12,14,12,277,29,17,31,307,21,22,16,293,19,28,09,094,20,1*61
2025-07-17T12:24:48,027921084+02:00;$GPGSV,3,3,12,32,33,053,18,04,04,189,,10,05,063,,19,08,320,,1*69
2025-07-17T12:24:48,029444778+02:00;$GPGGA,102448.00,5224.103458,N,01044.997841,E,1,07,1.0,103.1,M,46.0,M,,*61
2025-07-17T12:24:48,030925495+02:00;$GPVTG,109.4,T,109.3,M,0.0,N,0.0,K,A*24
2025-07-17T12:24:48,032296868+02:00;$GPRMC,102448.00,A,5224.103458,N,01044.997841,E,0.0,109.4,170725,0.1,E,A,V*4E
2025-07-17T12:24:48,033632624+02:00;$GPGSA,A,3,01,02,03,08,14,17,32,,,,,,1.3,1.0,0.8,1*2E
2025-07-17T12:24:49,020437465+02:00;$GAGSV,3,1,10,07,43,142,30,03,03,028,,08,40,064,,13,39,104,,7*7D
2025-07-17T12:24:49,022640173+02:00;$GAGSV,3,2,10,23,11,243,,24,06,343,,26,81,313,,29,06,184,,7*7F
2025-07-17T12:24:49,024279676+02:00;$GAGSV,3,3,10,31,19,293,,33,30,289,,7*70
2025-07-17T12:24:49,027268055+02:00;$GPGSV,3,1,12,01,77,289,25,02,67,123,19,03,49,243,20,08,19,177,19,1*6B
2025-07-17T12:24:49,029005287+02:00;$GPGSV,3,2,12,14,12,277,29,17,31,307,19,22,16,293,18,28,09,094,20,1*6B
2025-07-17T12:24:49,031739008+02:00;$GPGSV,3,3,12,32,33,053,18,04,04,189,,10,05,063,,19,08,320,,1*69
2025-07-17T12:24:49,033488336+02:00;$GPGGA,102449.00,5224.103451,N,01044.997859,E,1,07,1.0,103.1,M,46.0,M,,*60
2025-07-17T12:24:49,036088808+02:00;$GPVTG,109.4,T,109.3,M,0.0,N,0.0,K,A*24
2025-07-17T12:24:49,037987930+02:00;$GPRMC,102449.00,A,5224.103451,N,01044.997859,E,0.0,109.4,170725,0.1,E,A,V*4F
2025-07-17T12:24:49,039724426+02:00;$GPGSA,A,3,01,02,03,08,14,17,32,,,,,,1.3,1.0,0.8,1*2E
2025-07-17T12:24:50,012947054+02:00;$GAGSV,3,1,10,07,43,142,30,03,03,028,,08,40,064,,13,39,104,,7*7D
2025-07-17T12:24:50,015077601+02:00;$GAGSV,3,2,10,23,11,243,,24,06,343,,26,81,313,,29,06,184,,7*7F
2025-07-17T12:24:50,016770609+02:00;$GAGSV,3,3,10,31,19,293,,33,30,289,,7*70
2025-07-17T12:24:50,018175614+02:00;$GPGSV,3,1,12,01,77,289,25,02,67,123,19,03,49,243,20,08,19,177,19,1*6B
2025-07-17T12:24:50,019530154+02:00;$GPGSV,3,2,12,14,12,277,29,17,31,307,19,22,16,293,18,28,09,094,20,1*6B
2025-07-17T12:24:50,020977880+02:00;$GPGSV,3,3,12,32,33,053,18,04,04,189,,10,05,063,,19,08,320,,1*69
2025-07-17T12:24:50,022423429+02:00;$GPGGA,102450.00,5224.103442,N,01044.997884,E,1,06,1.1,103.1,M,46.0,M,,*6A
2025-07-17T12:24:50,024018964+02:00;$GPVTG,109.4,T,109.3,M,0.0,N,0.0,K,A*24
2025-07-17T12:24:50,025588642+02:00;$GPRMC,102450.00,A,5224.103442,N,01044.997884,E,0.0,109.4,170725,0.1,E,A,V*45
2025-07-17T12:24:50,027327570+02:00;$GPGSA,A,3,01,02,08,14,17,32,,,,,,,1.3,1.1,0.8,1*2C
